{
    "pois": [
        {
            "address": "Shaniwar Peth, Pune, Maharashtra 411030",
            "id": "aarhus",
            "image": "https://lh3.googleusercontent.com/tpBMFN5os8K-qXIHiAX5SZEmN5fCzIGrj9FdJtbZPUkC91ookSoY520NYn7fK5yqmh1L1m3F2SJA58v6Qps3JusdrxoFSwk6Ajv2K88",
            "lat": 18.5194647,
            "lng": 73.8531288,
            "name": "Shaniwar Wada",
            "phone": "",
            "region": "europe"
        },
        {
            "address": "Parvati Paytha, Pune, Maharashtra 411009",
            "id": "amsterdam",
            "image": "https://lh3.googleusercontent.com/gG1zKXcSmRyYWHwUn2Z0MITpdqwb52RAEp3uthG2J5Xl-4_Wz7_WmoM6T_TBg6Ut3L1eF-8XENO10sxVIFdQHilj8iRG29wROpSoug",
            "lat": 18.5006861,
            "lng": 73.8330911,
            "name": "Parvati",
            "phone": "",
            "region": "europe"
        },
        {
            "address": "Opp. Nehru Stadium, Sadashiv Peth, Pune, Maharashtra 411030",
            "id": "ann-arbor",
            "image": "https://lh3.googleusercontent.com/Iim0OVcAgg9vmXc5ADn9KvOQFplrMZ8hBTg2biiTtuWPy_r56cy4Byx1ROk6coGt7knQdmx_jO45VX1kiCJZ0QzEtS97AP_BYG4F2w",
            "lat": 18.5020565,
            "lng": 73.8505194,
            "name": "Sarasbaug",
            "phone": "+1 734-332-6500",
            "region": "north-america"
        },
        {
            "address": "Fragkokklisias 7\nAthens 151 25\nGreece",
            "id": "athens",
            "image": "https://lh3.googleusercontent.com/XroZnqewSrO6KuvXM5hDHtjUJzUcRQLZYfCKs4jP44dKezRvNx58uxaqUKS4fQ2eXzG2TpJNJ1X2xtfBe7Prl5hSG_xjPEF1xLtFodM",
            "lat": 38.03902,
            "lng": 23.804595,
            "name": "Raja Dinkar Kelkar museum",
            "phone": "",
            "region": "europe"
        },
        {
            "address": "10 10th Street NE\nAtlanta, GA 30309\nUnited States",
            "id": "atlanta",
            "image": "https://lh3.googleusercontent.com/py7Qvqqoec1MB0dMKnGWn7ju9wET_dIneTb24U-ri8XAsECJnOaBoNmvfa51PIaC0rlsyQvQXvAK8RdLqpkhpkRSzmhNKqb-tY2_",
            "lat": 33.781827,
            "lng": -84.387301,
            "name": "Kasba Ganapati Mandir",
            "phone": "+1 404-487-9000",
            "region": "north-america"
        },
        {
            "address": "500 W 2nd St\nSuite 2900\nAustin, TX 78701\nUnited States",
            "id": "austin",
            "image": "https://lh3.googleusercontent.com/WFaJgWPdd7xPL7CQHizlqEzLDjT_GUAiWHIWUM0PiVSsv8q3Rjt9QgbyQazuQwYfN5qLORajv8eKSHlKwZo-M89T2Y12zFSxSIme08c",
            "lat": 30.266035,
            "lng": -97.749237,
            "name": "Dagadusheth Mandir",
            "phone": "+1 512-343-5283",
            "region": "north-america"
        },
        {
            "address": "No. 3, RMZ Infinity \u2013 Tower E\nOld Madras Road\n4th and 5th Floors\nBangalore, 560 016, India",
            "id": "bangalore",
            "image": "https://lh3.googleusercontent.com/YDyQevoY-D0eZQ9sYHp8dQjpFF5JpLfLK-0OM-uJK1oNK3_LRnGJAM0uXi9qb9UigKnVIIXlIgidxhRlnaB_FPtUOqPzrsCSiFZyoQ",
            "lat": 12.99332,
            "lng": 77.660176,
            "name": "Shivaji Statue",
            "phone": "+91-80-67218000",
            "region": "asia-pacific"
        },
        {
            "address": "Wellesley Rd, Shivajinagar, Pune, Maharashtra 411005",
            "id": "bangkok",
            "image": "https://lh3.googleusercontent.com/nh9uOUPj6iWjKZSHIrnkfGhIWGBb8thguRM5_ehCOkyF-qfwzYciDJFVRSvQ6QxlSA6eZUMkzgdW9zR0Gab2ZZPg8NlB7V_V3wB5",
            "lat": 18.5293825,
            "lng": 73.8543523,
            "name": "College of Engineering, Pune",
            "phone": "",
            "region": "asia-pacific"
        },
        {
            "address": "6th Floor, Tower B, Raycom InfoTech Park\nNo. 2 Kexueyuan South Road\nZhongguancun Beijing 100190",
            "id": "beijing",
            "image": "https://lh3.googleusercontent.com/v_tD3VvC8-dnhqSF9xhj5Hx7F_bb3-wieM19i-Ho2C3by6mt7-JpPc7KsYVHUZFqQl5ON3adVEV1N4OlzSvHLrr3sr4GtXErDbGC",
            "lat": 39.9848878,
            "lng": 116.3265708,
            "name": "Jangli Maharaj Mandir",
            "phone": "+86-10-62503000",
            "region": "asia-pacific"
        },
        {
            "address": "Boulevard Corporate Tower\nAv. dos Andradas, 3000 - Andares 14-17\nSanta Efig\u00eania\nBelo Horizonte\n30260-070, Brazil",
            "id": "belo-horizonte",
            "image": "https://lh3.googleusercontent.com/f7F8gTi9GSgAZR3lv24I1yb-D0wRlDy0lQTcxCB4yJGtSgxrWdKoB3dX3J8SMrjYLwOSXquO3LuGFUE82QUjzVK9buHGNIRUPGpqM3E",
            "lat": -19.920225,
            "lng": -43.920845,
            "name": "Shimla Office",
            "phone": "+55-31-2128-6800",
            "region": "latin-america"
        },
        {
            "address": "Tucholskystra\u00dfe 2\n10117 Berlin\nGermany",
            "id": "berlin",
            "image": "https://lh3.googleusercontent.com/XcPyEMiSlLdZJq7nh3orGy3UqjtUHdhxXiwn52ZY47wfEChfZNDO78zDy9H0tBeegogZBZpIE0Q9mdVBGN4aQ0M5vfgz8ZWMEe43Mg",
            "lat": 52.5231079,
            "lng": 13.39203120000002,
            "name": "Agricultural College",
            "phone": "+49 30 303986300",
            "region": "europe"
        },
        {
            "address": "Carrera 11A 94 - 45\nCentro Empresarial Oxo Centre\nBogota, Colombia",
            "id": "bogota",
            "image": "https://lh3.googleusercontent.com/_APoV1zAR0g5_pXVDlT2ovgNQfr3zvjOuj4HFHViiy2ahyjapJMXlYRE48qYMyFTWXJybbK4psz-fQ82QhMhO0keYJ27I8tNTHe_ww",
            "lat": 4.678267,
            "lng": -74.046901,
            "name": "Fergusson College",
            "phone": "+57 (1) 5939400",
            "region": "latin-america"
        }
        
    ]
}